<?xml version="1.0" encoding="UTF-8"?><kml xmlns="http://earth.google.com/kml/2.0"><Document><name>GR-10 Senderos del Sistema Central</name><visibility>1</visibility><open>1</open><Folder><name>GR 10 Etapa 4. Recorrido desde Hoyocasero a Tamborrios</name><description>

</description><visibility>1</visibility><open>1</open><Placemark><name>Track</name><Style><LineStyle><color>FF0000FF</color><width>1</width></LineStyle></Style><LineString>
<coordinates>-4.9755922321356,40.399296271873,0 -4.9756045331864,40.399304727513,0 -4.9756946923312,40.399441624525,0 -4.9758174628351,40.399572748252,0 -5.1333151699343,40.340005725002,0 -5.1334695989579,40.340038989024,0</coordinates></LineString></Placemark><Style id="estadoNormal">
								<IconStyle><scale>1.0</scale><Icon><href>http://senderos.turismodearagon.com/img/wht-stars.png</href></Icon></IconStyle>
								<LabelStyle><scale>1.0</scale></LabelStyle>
							  </Style>
							  <Style id="estadoSobre">
								<IconStyle><scale>1.1</scale><Icon><href>http://senderos.turismodearagon.com/img/red-stars.png</href></Icon></IconStyle>
								<LabelStyle><scale>1.1</scale><color>ff0000c0</color></LabelStyle>
							  </Style>
							  <StyleMap id="EstiloPuntos">
								<Pair>
								  <key>normal</key>
								  <styleUrl>#estadoNormal</styleUrl>
								</Pair>
								<Pair>
								  <key>highlight</key>
								  <styleUrl>#estadoSobre</styleUrl>
								</Pair>
							  </StyleMap><Placemark><name>HOYOCASERO</name><visibility>1</visibility><styleUrl>#EstiloPuntos</styleUrl><description>A unos 1.350 metros de altitud en la Sierra de Gredos, encontramos esta localidad enclavada en un paraje envidiable, entre el que destaca su famoso pinar.</description><Point><coordinates>-4.9755922902302,40.399296243856,0 </coordinates></Point></Placemark><Placemark><name>DESViO</name><visibility>1</visibility><styleUrl>#EstiloPuntos</styleUrl><description></description><Point><coordinates>-4.9833564873551,40.399893723403,0 </coordinates></Point></Placemark><Placemark><name>aREA RECREATIVA FUENTE DEL ALBUnOL</name><visibility>1</visibility><styleUrl>#EstiloPuntos</styleUrl><description></description><Point><coordinates>-4.9894715384664,40.392330204391,0 </coordinates></Point></Placemark><Placemark><name>PUENTE SOBRE EL RiO ALBERCHE</name><visibility>1</visibility><styleUrl>#EstiloPuntos</styleUrl><description></description><Point><coordinates>-5.016742949909,40.376915734561,0 </coordinates></Point></Placemark><Placemark><name>CTRA. N-502</name><visibility>1</visibility><styleUrl>#EstiloPuntos</styleUrl><description></description><Point><coordinates>-5.018571946747,40.376326059262,0 </coordinates></Point></Placemark><Placemark><name>VENTA DE LA RASQUILLA</name><visibility>1</visibility><styleUrl>#EstiloPuntos</styleUrl><description></description><Point><coordinates>-5.0179231186994,40.373576103913,0 </coordinates></Point></Placemark><Placemark><name>VENTA DE RASCA</name><visibility>1</visibility><styleUrl>#EstiloPuntos</styleUrl><description></description><Point><coordinates>-5.0160695956818,40.367911104933,0 </coordinates></Point></Placemark><Placemark><name>VENTA DE SAN MIGUEL</name><visibility>1</visibility><styleUrl>#EstiloPuntos</styleUrl><description></description><Point><coordinates>-5.0153122237106,40.362260449307,0 </coordinates></Point></Placemark><Placemark><name>DESViO</name><visibility>1</visibility><styleUrl>#EstiloPuntos</styleUrl><description></description><Point><coordinates>-5.0156630505591,40.359501762971,0 </coordinates></Point></Placemark><Placemark><name>CRUCE ARROYO</name><visibility>1</visibility><styleUrl>#EstiloPuntos</styleUrl><description></description><Point><coordinates>-5.0170216210567,40.351843361446,0 </coordinates></Point></Placemark><Placemark><name>CRUCE ARROYO</name><visibility>1</visibility><styleUrl>#EstiloPuntos</styleUrl><description></description><Point><coordinates>-5.0161123557678,40.347968330067,0 </coordinates></Point></Placemark><Placemark><name>CRUCE ARROYO</name><visibility>1</visibility><styleUrl>#EstiloPuntos</styleUrl><description></description><Point><coordinates>-5.0157814742125,40.345285590213,0 </coordinates></Point></Placemark><Placemark><name>CRUCE ARROYO</name><visibility>1</visibility><styleUrl>#EstiloPuntos</styleUrl><description></description><Point><coordinates>-5.0155906116175,40.335992170916,0 </coordinates></Point></Placemark><Placemark><name>DESViO</name><visibility>1</visibility><styleUrl>#EstiloPuntos</styleUrl><description></description><Point><coordinates>-5.0148155902635,40.322229897488,0 </coordinates></Point></Placemark><Placemark><name>CORDEL</name><visibility>1</visibility><styleUrl>#EstiloPuntos</styleUrl><description></description><Point><coordinates>-5.0160643146885,40.321145957958,0 </coordinates></Point></Placemark><Placemark><name>CASAS DE NAVARENAS</name><visibility>1</visibility><styleUrl>#EstiloPuntos</styleUrl><description></description><Point><coordinates>-5.0791981966586,40.346699954215,0 </coordinates></Point></Placemark><Placemark><name>PUENTE</name><visibility>1</visibility><styleUrl>#EstiloPuntos</styleUrl><description></description><Point><coordinates>-5.0829368824394,40.350581390872,0 </coordinates></Point></Placemark><Placemark><name>DESViO</name><visibility>1</visibility><styleUrl>#EstiloPuntos</styleUrl><description></description><Point><coordinates>-5.0856449993795,40.350056161336,0 </coordinates></Point></Placemark><Placemark><name>aREA RECREATIVA TAMBORRiOS</name><visibility>1</visibility><styleUrl>#EstiloPuntos</styleUrl><description>Zona que cuenta con un aula de la naturaleza y con el camping Navagredos.</description><Point><coordinates>-5.1334696566501,40.340038951927,0 </coordinates></Point></Placemark></Folder></Document></kml>